$GPTXT,01,01,02,u-blox ag - www.u-blox.com*50
$GPTXT,01,01,02,HW  UBX-G60xx  00040007 EFFBFFFFp*25
$GPTXT,01,01,02,ROM CORE 7.03 (45969) Mar 17 2011 16:18:34*59
$GPTXT,01,01,02,ANTSUPERV=AC SD PDoS SR*20
$GPTXT,01,01,02,ANTSTATUS=OK*3B
$GPRMC,030445.00,A,4430.26737,N,06353.28744,W,0.075,,090214,,,D*67
$GPVTG,,T,,M,0.075,N,0.139,K,D*2F
$GPGGA,030445.00,4430.26737,N,06353.28744,W,2,12,0.97,22.1,M,-24.7,M,,0000*51
$GPGSA,A,3,27,03,06,16,46,19,13,23,21,09,08,11,1.46,0.97,1.09*0B
$GPGSV,4,1,16,03,86,096,38,06,57,057,44,07,45,308,33,08,13,312,18*7A
$GPGSV,4,2,16,09,08,315,18,11,17,183,28,13,37,242,34,16,48,069,35*76
$GPGSV,4,3,16,19,66,198,36,21,08,034,26,23,19,210,27,27,69,064,42*7D
$GPGSV,4,4,16,30,05,086,18,33,20,121,32,46,32,225,35,51,23,233,*79
$GPGLL,4430.26737,N,06353.28744,W,030445.00,A,D*72
$GPRMC,030446.00,A,4430.26740,N,06353.28748,W,0.099,,090214,,,D*6A
$GPVTG,,T,,M,0.099,N,0.183,K,D*2C
$GPGGA,030446.00,4430.26740,N,06353.28748,W,2,12,0.97,22.1,M,-24.7,M,,0000*5E
$GPGSA,A,3,27,03,06,16,46,19,13,23,21,09,08,11,1.46,0.97,1.09*0B
$GPGSV,4,1,16,03,86,096,38,06,57,057,44,07,45,308,33,08,13,312,18*7A
$GPGSV,4,2,16,09,08,315,18,11,17,183,28,13,37,242,34,16,48,069,35*76
$GPGSV,4,3,16,19,66,198,36,21,08,034,26,23,19,210,27,27,69,063,42*7A
$GPGSV,4,4,16,30,05,086,19,33,20,121,32,46,32,225,35,51,23,233,*78
$GPGLL,4430.26740,N,06353.28748,W,030446.00,A,D*7D
$GPRMC,030447.00,A,4430.26738,N,06353.28747,W,0.109,,090214,,,D*63
$GPVTG,,T,,M,0.109,N,0.202,K,D*2E
$GPGGA,030447.00,4430.26738,N,06353.28747,W,2,12,0.97,22.1,M,-24.7,M,,0000*5F
$GPGSA,A,3,27,03,06,16,46,19,13,23,21,09,08,11,1.46,0.97,1.09*0B
$GPGSV,4,1,16,03,86,096,38,06,57,057,44,07,45,308,32,08,13,312,18*7B
$GPGSV,4,2,16,09,08,315,19,11,17,183,28,13,37,242,34,16,48,069,35*77
$GPGSV,4,3,16,19,66,198,36,21,08,034,25,23,19,210,27,27,69,063,42*79
$GPGSV,4,4,16,30,05,086,19,33,20,121,32,46,32,225,35,51,23,233,*78
$GPGLL,4430.26738,N,06353.28747,W,030447.00,A,D*7C
$GPRMC,030448.00,A,4430.26739,N,06353.28748,W,0.137,,090214,,,D*6F
$GPVTG,,T,,M,0.137,N,0.254,K,D*20
$GPGGA,030448.00,4430.26739,N,06353.28748,W,2,12,0.97,22.0,M,-24.7,M,,0000*5F
$GPGSA,A,3,27,03,06,16,46,19,13,23,21,09,08,11,1.46,0.97,1.09*0B
$GPGSV,4,1,16,03,86,096,38,06,57,057,44,07,45,308,32,08,13,312,19*7A
$GPGSV,4,2,16,09,08,315,19,11,17,183,28,13,37,242,34,16,48,069,35*77
$GPGSV,4,3,16,19,66,198,36,21,08,034,26,23,19,210,26,27,69,063,42*7B
$GPGSV,4,4,16,30,05,086,19,33,20,121,32,46,32,225,35,51,23,233,*78
$GPGLL,4430.26739,N,06353.28748,W,030448.00,A,D*7D
$GPRMC,030449.00,A,4430.26742,N,06353.28752,W,0.180,,090214,,,D*65
$GPVTG,,T,,M,0.180,N,0.334,K,D*2B
$GPGGA,030449.00,4430.26742,N,06353.28752,W,2,12,0.97,22.0,M,-24.7,M,,0000*59
$GPGSA,A,3,27,03,06,16,46,19,13,23,21,09,08,11,1.46,0.97,1.09*0B
$GPGSV,4,1,16,03,86,096,38,06,57,057,44,07,45,308,32,08,13,312,18*7B
$GPGSV,4,2,16,09,08,315,18,11,17,183,28,13,37,242,34,16,48,069,35*76
$GPGSV,4,3,16,19,66,198,36,21,08,034,25,23,19,210,26,27,69,063,42*78
$GPGSV,4,4,16,30,05,087,18,33,20,121,32,46,32,225,35,51,23,233,*78
$GPGLL,4430.26742,N,06353.28752,W,030449.00,A,D*7B
$GPRMC,030450.00,A,4430.26742,N,06353.28752,W,0.031,,090214,,,D*66
$GPVTG,,T,,M,0.031,N,0.058,K,D*29
$GPGGA,030450.00,4430.26742,N,06353.28752,W,2,12,0.97,21.8,M,-24.7,M,,0000*5A
$GPGSA,A,3,27,03,06,16,46,19,13,23,21,09,08,11,1.46,0.97,1.09*0B
$GPGSV,4,1,16,03,86,096,38,06,57,057,44,07,45,308,32,08,13,312,18*7B
$GPGSV,4,2,16,09,08,315,19,11,17,183,28,13,37,242,34,16,48,069,35*77
$GPGSV,4,3,16,19,66,198,36,21,08,034,25,23,19,210,27,27,69,063,42*79
$GPGSV,4,4,16,30,05,087,18,33,20,121,32,46,32,225,35,51,23,233,*78
$GPGLL,4430.26742,N,06353.28752,W,030450.00,A,D*73
$GPTXT,01,01,01,NMEA unknown msg*58
$GPRMC,030451.00,A,4430.26745,N,06353.28755,W,0.091,,090214,,,D*6D
$GPVTG,,T,,M,0.091,N,0.168,K,D*21
$GPGGA,030451.00,4430.26745,N,06353.28755,W,2,12,0.97,21.7,M,-24.7,M,,0000*54
$GPGSA,A,3,27,03,06,16,46,19,13,23,21,09,08,11,1.46,0.97,1.09*0B
$GPGSV,4,1,16,03,86,096,38,06,57,057,44,07,45,308,32,08,13,312,18*7B
$GPGSV,4,2,16,09,08,315,18,11,17,183,28,13,37,242,34,16,48,069,35*76
$GPGSV,4,3,16,19,66,198,36,21,08,034,25,23,19,210,26,27,69,063,42*78
$GPGSV,4,4,16,30,05,087,,33,20,121,32,46,32,225,35,51,23,233,*71
$GPGLL,4430.26745,N,06353.28755,W,030451.00,A,D*72
$GPRMC,030452.00,A,4430.26749,N,06353.28758,W,0.080,,090214,,,D*6F
$GPVTG,,T,,M,0.080,N,0.148,K,D*23
$GPGGA,030452.00,4430.26749,N,06353.28758,W,2,12,0.97,21.6,M,-24.7,M,,0000*57
$GPGSA,A,3,27,03,06,16,46,19,13,23,21,09,08,11,1.46,0.97,1.09*0B
$GPGSV,4,1,16,03,86,096,38,06,57,057,44,07,45,308,32,08,13,312,18*7B
$GPGSV,4,2,16,09,08,315,19,11,17,183,27,13,37,242,34,16,48,069,35*78
$GPGSV,4,3,16,19,66,198,36,21,08,034,25,23,19,210,26,27,69,063,42*78
$GPGSV,4,4,16,30,05,087,22,33,20,121,32,46,32,225,35,51,23,233,*71
$GPGLL,4430.26749,N,06353.28758,W,030452.00,A,D*70
$GPRMC,030453.00,A,4430.26749,N,06353.28761,W,0.023,,090214,,,D*6D
$GPVTG,,T,,M,0.023,N,0.043,K,D*20
$GPGGA,030453.00,4430.26749,N,06353.28761,W,2,12,0.97,21.6,M,-24.7,M,,0000*5C
$GPGSA,A,3,27,03,06,16,46,19,13,23,21,09,08,11,1.46,0.97,1.09*0B
$GPGSV,4,1,16,03,86,096,38,06,57,057,44,07,45,308,32,08,13,312,18*7B
$GPGSV,4,2,16,09,08,315,18,11,17,183,27,13,37,242,34,16,48,069,35*79
$GPGSV,4,3,16,19,66,198,36,21,08,034,25,23,19,210,27,27,69,063,42*79
$GPGSV,4,4,16,30,05,087,,33,20,121,32,46,32,225,35,51,23,233,*71
$GPGLL,4430.26749,N,06353.28761,W,030453.00,A,D*7B
$GPRMC,030454.00,A,4430.26751,N,06353.28766,W,0.116,,090214,,,D*63
$GPVTG,,T,,M,0.116,N,0.215,K,D*26
$GPGGA,030454.00,4430.26751,N,06353.28766,W,2,12,0.97,21.4,M,-24.7,M,,0000*57
$GPGSA,A,3,27,03,06,16,46,19,13,23,21,09,08,11,1.46,0.97,1.09*0B
$GPGSV,4,1,16,03,86,096,38,06,57,057,44,07,45,308,32,08,13,312,18*7B
$GPGSV,4,2,16,09,08,315,18,11,17,183,27,13,37,242,34,16,48,069,35*79
$GPGSV,4,3,16,19,66,198,36,21,08,034,25,23,19,210,26,27,69,063,42*78
$GPGSV,4,4,16,30,05,087,,33,20,121,32,46,32,225,35,51,23,233,*71
$GPGLL,4430.26751,N,06353.28766,W,030454.00,A,D*72
$GPRMC,030455.00,A,4430.26751,N,06353.28768,W,0.083,,090214,,,D*61
$GPVTG,,T,,M,0.083,N,0.155,K,D*2C
$GPGGA,030455.00,4430.26751,N,06353.28768,W,2,12,0.97,21.4,M,-24.7,M,,0000*58
$GPGSA,A,3,27,03,06,16,46,19,13,23,21,09,08,11,1.46,0.97,1.09*0B
$GPGSV,4,1,16,03,86,096,38,06,57,057,44,07,45,308,32,08,13,312,18*7B
$GPGSV,4,2,16,09,08,315,18,11,17,183,27,13,37,242,34,16,48,069,35*79
$GPGSV,4,3,16,19,66,198,36,21,08,034,25,23,19,210,26,27,69,063,42*78
$GPGSV,4,4,16,30,05,087,,33,20,121,32,46,32,225,35,51,23,233,*71
$GPGLL,4430.26751,N,06353.28768,W,030455.00,A,D*7D
$GPRMC,030456.00,A,4430.26758,N,06353.28775,W,0.277,,090214,,,D*6E
$GPVTG,,T,,M,0.277,N,0.514,K,D*24
$GPGGA,030456.00,4430.26758,N,06353.28775,W,2,12,0.97,21.2,M,-24.7,M,,0000*58
$GPGSA,A,3,27,03,06,16,46,19,13,23,21,09,08,11,1.46,0.97,1.09*0B
$GPGSV,4,1,16,03,86,096,38,06,57,057,44,07,45,308,32,08,13,312,18*7B
$GPGSV,4,2,16,09,08,315,18,11,17,183,27,13,37,242,34,16,48,069,35*79
$GPGSV,4,3,16,19,66,198,36,21,08,034,25,23,19,210,26,27,69,063,42*78
$GPGSV,4,4,16,30,05,087,21,33,20,121,32,46,32,225,35,51,23,233,*72
$GPGLL,4430.26758,N,06353.28775,W,030456.00,A,D*7B
$GPRMC,030457.00,A,4430.26760,N,06353.28778,W,0.160,,090214,,,D*6C
$GPVTG,,T,,M,0.160,N,0.296,K,D*2C
$GPGGA,030457.00,4430.26760,N,06353.28778,W,2,12,0.97,21.1,M,-24.7,M,,0000*5C
$GPGSA,A,3,27,03,06,16,46,19,13,23,21,09,08,11,1.46,0.97,1.09*0B
$GPGSV,4,1,16,03,86,096,38,06,57,057,44,07,45,308,32,08,13,312,17*74
$GPGSV,4,2,16,09,08,315,18,11,17,183,28,13,37,242,34,16,48,069,35*76
$GPGSV,4,3,16,19,66,198,36,21,08,034,24,23,19,210,26,27,69,063,42*79
$GPGSV,4,4,16,30,05,087,23,33,20,121,32,46,32,225,35,51,23,233,*70
$GPGLL,4430.26760,N,06353.28778,W,030457.00,A,D*7C
$GPRMC,030458.00,A,4430.26755,N,06353.28774,W,0.138,,090214,,,D*64
$GPVTG,,T,,M,0.138,N,0.256,K,D*2D
$GPGGA,030458.00,4430.26755,N,06353.28774,W,2,12,0.97,21.1,M,-24.7,M,,0000*59
$GPGSA,A,3,27,03,06,16,46,19,13,23,21,09,08,11,1.46,0.97,1.09*0B
$GPGSV,4,1,16,03,86,096,38,06,57,057,44,07,45,308,31,08,13,312,18*78
$GPGSV,4,2,16,09,08,315,17,11,17,183,28,13,37,242,34,16,48,069,35*79
$GPGSV,4,3,16,19,66,198,36,21,08,034,24,23,19,210,26,27,69,063,42*79
$GPGSV,4,4,16,30,05,087,22,33,20,121,32,46,32,225,35,51,23,233,*71
$GPGLL,4430.26755,N,06353.28774,W,030458.00,A,D*79
$GPRMC,030459.00,A,4430.26750,N,06353.28769,W,0.105,,090214,,,D*62
$GPVTG,,T,,M,0.105,N,0.194,K,D*2E
$GPGGA,030459.00,4430.26750,N,06353.28769,W,2,12,0.97,21.0,M,-24.7,M,,0000*50
$GPGSA,A,3,27,03,06,16,46,19,13,23,21,09,08,11,1.46,0.97,1.09*0B
$GPGSV,4,1,16,03,86,096,38,06,57,057,44,07,45,308,32,08,13,312,18*7B
$GPGSV,4,2,16,09,08,315,16,11,17,183,27,13,37,242,34,16,48,069,36*74
$GPGSV,4,3,16,19,66,198,36,21,08,034,25,23,19,210,26,27,69,063,42*78
$GPGSV,4,4,16,30,05,087,,33,20,121,32,46,32,225,35,51,23,233,*71
$GPGLL,4430.26750,N,06353.28769,W,030459.00,A,D*71
